City_ID,City,Country,Lat,Lng,Max Temp,Humidity,Cloudiness,Wind Speed,Current Description
0,Atuona,PF,-9.8,-139.0333,77.41,72,33,16.33,light rain
1,Kapaa,US,22.0752,-159.319,81.12,70,0,13.8,clear sky
2,Kaitangata,NZ,-46.2817,169.8464,36.16,91,22,4.5,few clouds
3,Port Hawkesbury,CA,45.6169,-61.3485,76.89,70,3,8.99,clear sky
4,Qaanaaq,GL,77.484,-69.3632,30.99,86,100,5.26,overcast clouds
5,Busselton,AU,-33.65,115.3333,63.64,88,96,18.7,light rain
6,Ukiah,US,39.1502,-123.2078,94.44,38,0,8.05,clear sky
7,Komsomolskiy,UZ,40.4272,71.7189,75.49,39,14,2.66,few clouds
8,Tautira,PF,-17.7333,-149.15,78.89,75,29,10.71,light rain
9,Arti,RU,56.4234,58.5328,53.28,92,100,4.27,light rain
10,Praia,CV,14.9215,-23.5087,77.54,73,20,13.8,few clouds
11,Mataura,NZ,-46.1927,168.8643,39.47,99,100,4.7,moderate rain
12,Barrow,US,71.2906,-156.7887,32.02,93,100,10.36,mist
13,Butaritari,KI,3.0707,172.7902,82.33,73,96,14.05,light rain
14,Mahebourg,MU,-20.4081,57.7,69.26,79,58,14.43,light rain
15,Jiaojiang,CN,28.6803,121.4428,68.0,93,100,5.75,overcast clouds
16,Belyy Yar,RU,53.6039,91.3903,53.85,57,0,6.71,clear sky
17,Cape Town,ZA,-33.9258,18.4232,65.37,43,91,4.99,overcast clouds
18,Hermanus,ZA,-34.4187,19.2345,64.45,40,26,10.87,scattered clouds
19,Hobart,AU,-42.8794,147.3294,45.27,92,100,12.66,moderate rain
20,Inuvik,CA,68.3499,-133.7218,52.3,42,100,12.62,overcast clouds
21,Zhigansk,RU,66.7697,123.3711,51.39,86,100,9.62,overcast clouds
22,Richards Bay,ZA,-28.783,32.0377,63.14,86,6,5.08,clear sky
23,Port Elizabeth,ZA,-33.918,25.5701,61.88,57,0,7.4,clear sky
24,Bluff,NZ,-46.6,168.3333,39.79,79,100,9.46,light rain
25,Namatanai,PG,-3.6667,152.4333,77.0,78,2,7.2,clear sky
26,Ust-Nera,RU,64.5667,143.2,47.43,39,1,1.68,clear sky
27,Albany,US,42.6001,-73.9662,74.57,45,6,1.99,clear sky
28,Dikson,RU,73.5069,80.5464,33.15,86,91,6.62,overcast clouds
29,Grindavik,IS,63.8424,-22.4338,57.67,62,75,18.41,broken clouds
30,Cayenne,GF,4.9333,-52.3333,78.1,1,100,2.3,moderate rain
31,San Lawrenz,MT,36.0553,14.204,70.86,82,0,5.99,clear sky
32,Beyneu,KZ,45.3167,55.2,74.35,33,13,13.18,few clouds
33,Bredasdorp,ZA,-34.5322,20.0403,58.51,49,88,4.54,overcast clouds
34,Puerto Escondido,MX,15.85,-97.0667,85.03,65,75,17.27,broken clouds
35,Aviles,ES,43.5547,-5.9248,66.76,85,75,2.3,broken clouds
36,Vaini,TO,-21.2,-175.2,75.36,83,75,4.61,broken clouds
37,Arawa,PG,-6.2132,155.5367,75.47,88,9,2.44,clear sky
38,Hameenlinna,FI,60.996,24.4643,57.02,92,100,3.09,overcast clouds
39,Upernavik,GL,72.7868,-56.1549,31.87,78,14,10.69,few clouds
40,Punta Arenas,CL,-53.15,-70.9167,46.51,76,20,18.41,few clouds
41,Sorland,NO,67.667,12.6934,46.26,76,0,16.46,clear sky
42,Port Alfred,ZA,-33.5906,26.891,62.89,72,0,11.16,clear sky
43,Bandarbeyla,SO,9.4942,50.8122,79.88,74,56,22.68,broken clouds
44,Saskylakh,RU,71.9167,114.0833,40.55,75,0,16.02,clear sky
45,Lorengau,PG,-2.0226,147.2712,79.83,72,24,5.53,few clouds
46,Narrabri,AU,-30.3167,149.7833,44.53,89,97,4.7,overcast clouds
47,Havelock,US,34.8791,-76.9013,84.18,58,99,5.01,overcast clouds
48,Cabo San Lucas,MX,22.8909,-109.9124,92.5,45,0,9.22,clear sky
49,Bethel,US,41.3712,-73.414,77.94,43,0,9.22,clear sky
50,Half Moon Bay,US,37.4636,-122.4286,100.54,42,20,13.8,few clouds
51,Rikitea,PF,-23.1203,-134.9692,74.91,70,100,15.61,overcast clouds
52,Labuhan,ID,-6.8844,112.2051,78.44,87,40,6.44,scattered clouds
53,Kosh-Agach,RU,50.0,88.6667,52.23,26,0,3.22,clear sky
54,Nivala,FI,63.9167,24.9667,51.8,62,1,2.91,clear sky
55,Aklavik,CA,68.2191,-135.0107,49.66,58,100,4.7,overcast clouds
56,College,US,64.8569,-147.8028,55.08,56,100,6.91,light rain
57,Westerland,DE,54.9079,8.3033,60.03,94,100,12.66,overcast clouds
58,Norman Wells,CA,65.282,-126.8329,58.73,52,98,12.68,overcast clouds
59,Beringovskiy,RU,63.05,179.3167,40.41,68,4,8.5,clear sky
60,Lakes Entrance,AU,-37.8811,147.981,46.17,69,67,18.59,broken clouds
61,Adrar,MR,20.5022,-10.0711,97.84,10,17,8.16,few clouds
62,Cherskiy,RU,68.75,161.3,66.31,33,41,15.52,scattered clouds
63,Airai,TL,-8.9266,125.4092,56.84,94,69,3.87,broken clouds
64,Tura,IN,25.5198,90.2201,72.46,96,100,6.4,overcast clouds
65,Chokurdakh,RU,70.6333,147.9167,50.07,50,67,11.59,broken clouds
66,Saint-Philippe,RE,-21.3585,55.7679,65.79,80,55,11.05,light rain
67,Terrak,NO,65.087,12.3715,58.87,60,98,4.29,overcast clouds
68,Makakilo City,US,21.3469,-158.0858,84.52,50,0,11.5,clear sky
69,Pangody,RU,65.85,74.4859,57.92,75,100,11.68,overcast clouds
70,Khasan,RU,42.4308,130.6434,53.2,96,68,5.48,broken clouds
71,Nikolskoye,RU,59.7035,30.7861,60.69,80,100,3.27,overcast clouds
72,Ushuaia,AR,-54.8,-68.3,42.46,61,40,31.07,scattered clouds
73,Hun,LY,29.1268,15.9477,81.19,41,1,17.47,clear sky
74,Mardin,TR,37.3131,40.7436,75.97,27,2,1.79,clear sky
75,Newport,GB,51.5877,-2.9984,61.68,76,0,15.73,clear sky
76,Clyde River,CA,70.4692,-68.5914,34.03,93,100,9.22,overcast clouds
77,Bambous Virieux,MU,-20.3428,57.7575,69.22,79,64,14.27,light rain
78,Katsuura,JP,35.1333,140.3,68.4,84,100,6.87,overcast clouds
79,Yar-Sale,RU,66.8333,70.8333,53.51,84,100,13.49,overcast clouds
80,Whitehorse,CA,60.7161,-135.0538,55.02,66,100,11.01,overcast clouds
81,Te Anau,NZ,-45.4167,167.7167,37.76,95,100,3.83,moderate rain
82,Dicabisagan,PH,17.0818,122.4157,79.0,83,96,6.44,overcast clouds
83,Sikonge,TZ,-5.6333,32.7667,71.74,46,92,4.16,overcast clouds
84,Caravelas,BR,-17.7125,-39.2481,74.23,77,66,5.77,broken clouds
85,San Juan,AR,-31.5375,-68.5364,55.87,35,100,3.42,overcast clouds
86,Saint Anthony,US,45.0205,-93.218,80.53,30,20,10.36,few clouds
87,Ilulissat,GL,69.2167,-51.1,37.42,81,75,4.61,broken clouds
88,Hilo,US,19.7297,-155.09,82.27,70,100,12.66,overcast clouds
89,Kieta,PG,-6.2167,155.6333,77.88,81,9,2.51,clear sky
90,Salto,UY,-31.3833,-57.9667,51.96,35,0,13.8,clear sky
91,Thompson,CA,55.7435,-97.8558,74.26,24,6,9.26,clear sky
92,Beloha,MG,-25.1667,45.05,63.97,94,0,5.77,clear sky
93,Minab,IR,27.1467,57.0801,89.78,54,0,3.29,clear sky
94,East London,ZA,-33.0153,27.9116,61.99,75,0,8.66,clear sky
95,Zaysan,KZ,47.4667,84.8667,69.53,31,0,6.46,clear sky
96,Khatanga,RU,71.9667,102.5,39.7,76,100,8.37,overcast clouds
97,Carnarvon,AU,-24.8667,113.6333,69.53,70,1,7.85,clear sky
98,Birjand,IR,32.8663,59.2211,78.19,19,0,12.3,clear sky
99,Hobyo,SO,5.3505,48.5268,79.39,77,65,24.85,broken clouds
100,Hithadhoo,MV,-0.6,73.0833,84.36,70,68,11.81,broken clouds
101,Mitzic,GA,0.7821,11.549,70.83,92,91,1.7,overcast clouds
102,Mar Del Plata,AR,-38.0023,-57.5575,47.08,86,75,14.97,light rain
103,Faya,SA,18.3851,42.4509,72.12,13,0,7.25,clear sky
104,Adre,TD,13.4667,22.2,86.67,38,81,5.82,broken clouds
105,Antofagasta,CL,-23.65,-70.4,58.28,75,84,6.42,broken clouds
106,Provideniya,RU,64.3833,-173.3,48.31,34,100,8.32,overcast clouds
107,Kiunga,PG,-6.1219,141.2906,73.33,100,100,0.78,overcast clouds
108,Lebu,CL,-37.6167,-73.65,53.31,66,6,11.07,clear sky
109,Tasiilaq,GL,65.6145,-37.6368,42.96,70,56,5.77,broken clouds
110,Chowchilla,US,37.123,-120.2602,102.02,28,0,5.75,clear sky
111,Iqaluit,CA,63.7506,-68.5145,52.7,54,1,15.01,clear sky
112,Ornskoldsvik,SE,63.2909,18.7153,50.99,95,90,3.24,overcast clouds
113,Preobrazheniye,RU,42.9019,133.9064,50.68,96,97,8.39,overcast clouds
114,Sao Joao Da Barra,BR,-21.6403,-41.0511,78.89,78,41,10.04,scattered clouds
115,Iskateley,RU,67.6803,53.1512,42.73,83,100,18.43,light rain
116,Esperance,AU,-33.8667,121.9,56.25,58,98,17.11,overcast clouds
117,Srikakulam,IN,18.3,83.9,87.33,61,100,4.25,overcast clouds
118,Vila Velha,BR,-20.3297,-40.2925,78.75,79,0,11.5,clear sky
119,Avarua,CK,-21.2078,-159.775,77.05,61,75,9.22,broken clouds
120,Bengkulu,ID,-3.8004,102.2655,74.5,88,99,2.39,overcast clouds
121,New Norfolk,AU,-42.7826,147.0587,44.92,87,100,3.0,light rain
122,Vardo,NO,70.3705,31.1107,44.58,70,75,8.05,broken clouds
123,Georgetown,MY,5.4112,100.3354,80.53,83,40,0.0,scattered clouds
124,Nakatsu,JP,33.5981,131.1883,68.18,93,100,5.32,light rain
125,Mount Isa,AU,-20.7333,139.5,49.77,50,11,9.22,few clouds
126,Magnolia,US,33.2671,-93.2393,81.7,65,100,2.95,overcast clouds
127,Narsaq,GL,60.9167,-46.05,61.02,54,100,4.63,overcast clouds
128,Esso,RU,55.9333,158.7,48.65,87,100,5.01,overcast clouds
129,Hongjiang,CN,27.11,109.9956,70.12,99,97,2.44,overcast clouds
130,Touros,BR,-5.1989,-35.4608,78.1,86,8,9.66,clear sky
131,Pevek,RU,69.7008,170.3133,43.57,62,98,2.98,overcast clouds
132,Celestun,MX,20.8667,-90.4,86.4,66,3,11.18,clear sky
133,Arraial Do Cabo,BR,-22.9661,-42.0278,76.86,73,75,14.97,broken clouds
134,Kahului,US,20.8947,-156.47,84.22,67,20,20.71,few clouds
135,San Quintin,MX,30.4833,-115.95,73.51,60,1,9.24,clear sky
136,Imeni Poliny Osipenko,RU,52.4201,136.4853,44.53,86,25,6.64,scattered clouds
137,Lavrentiya,RU,65.5833,-171.0,43.93,46,27,9.55,scattered clouds
138,Xinzhi,CN,36.4989,111.7047,68.74,66,0,3.29,clear sky
139,Lompoc,US,34.6391,-120.4579,85.84,63,0,13.8,mist
140,Viedma,AR,-40.8135,-62.9967,49.24,29,3,9.82,clear sky
141,Sakakah,SA,29.9697,40.2064,91.18,14,0,5.53,clear sky
142,Port-Gentil,GA,-0.7193,8.7815,76.96,83,20,8.05,few clouds
143,Bonfim,BR,3.0833,-59.95,84.85,66,74,1.7,broken clouds
144,Ngunguru,NZ,-35.6167,174.5,59.2,81,0,16.08,clear sky
145,Yumen,CN,40.2833,97.2,63.52,14,100,13.13,overcast clouds
146,Yaring,TH,6.8662,101.3689,77.14,88,100,7.16,overcast clouds
147,Korla,CN,41.7597,86.1469,79.95,21,71,14.12,broken clouds
148,Sangin,AF,32.0728,64.8359,86.61,9,8,6.15,clear sky
149,Mutsu,JP,41.2894,141.2169,59.02,100,75,1.14,broken clouds
150,Trat,TH,12.5,102.5,83.91,88,100,0.85,overcast clouds
151,Hay River,CA,60.8156,-115.7999,67.1,47,35,4.16,scattered clouds
152,Cidreira,BR,-30.1811,-50.2056,53.69,60,54,19.93,broken clouds
153,Jamestown,US,42.097,-79.2353,69.19,30,0,13.8,clear sky
154,Ponta Do Sol,PT,32.6667,-17.1,74.71,72,0,4.72,clear sky
155,Roma,US,43.2128,-75.4557,71.74,46,75,18.41,broken clouds
156,Margate,GB,51.3813,1.3862,60.87,76,0,5.01,clear sky
157,Ocos,GT,14.5094,-92.1933,89.78,72,100,4.18,overcast clouds
158,Sebinkarahisar,TR,40.2883,38.4236,57.47,70,55,3.42,broken clouds
159,Ribeira Grande,PT,38.5167,-28.7,64.8,94,75,4.61,light rain
160,Turukhansk,RU,65.8167,87.9833,55.35,58,0,12.01,clear sky
161,Rio Grande,BR,-32.035,-52.0986,51.91,54,6,16.49,clear sky
162,Grand Gaube,MU,-20.0064,57.6608,69.39,88,14,5.01,moderate rain
163,Borzya,RU,50.3833,116.5167,54.99,71,12,10.96,few clouds
164,Valle De Santiago,MX,20.3833,-101.2,85.03,30,98,3.09,overcast clouds
165,Dunedin,NZ,-45.8742,170.5036,39.79,66,56,4.0,broken clouds
166,Kruisfontein,ZA,-34.0033,24.7314,59.67,43,1,7.81,clear sky
167,Yulara,AU,-25.2406,130.9889,46.42,57,100,6.87,overcast clouds
168,Wanlaweyn,SO,2.6185,44.8938,76.3,85,58,16.96,broken clouds
169,Xiamen,CN,24.4798,118.0819,77.25,94,86,5.95,overcast clouds
170,Mettur,IN,11.8,77.8,80.47,76,99,0.56,overcast clouds
171,Itarema,BR,-2.9248,-39.9167,78.44,86,23,11.99,few clouds
172,Castro,BR,-24.7911,-50.0119,58.55,89,100,4.74,light rain
173,Tuktoyaktuk,CA,69.4541,-133.0374,39.9,66,100,11.95,overcast clouds
174,Mudhol,IN,16.35,75.2833,75.87,78,41,13.8,scattered clouds
175,Shirokiy,RU,49.758,129.523,53.8,82,6,4.97,clear sky
176,Hasaki,JP,35.7333,140.8333,66.6,85,100,7.99,overcast clouds
177,Ankpa,NG,7.3706,7.6253,73.4,92,47,3.98,light rain
178,Howard Springs,AU,-12.497,131.047,64.81,53,100,8.68,overcast clouds
179,Tual,ID,-5.6667,132.75,82.62,78,74,17.72,broken clouds
180,Faanui,PF,-16.4833,-151.75,80.24,74,11,17.85,light rain
181,Cervo,ES,43.6702,-7.4101,63.97,88,3,5.21,clear sky
182,Boueni,YT,-12.9025,45.0761,76.98,70,2,11.39,clear sky
183,Alyangula,AU,-13.8483,136.4192,71.04,60,100,14.9,overcast clouds
184,Okha,RU,53.5739,142.9478,39.0,92,57,13.62,broken clouds
185,Bintulu,MY,3.1667,113.0333,77.11,89,100,3.47,overcast clouds
186,Prainha,BR,-1.8,-53.48,76.44,94,100,5.01,overcast clouds
187,Nanortalik,GL,60.1432,-45.2371,40.86,79,100,12.73,overcast clouds
188,Victoria,HK,22.2855,114.1577,80.96,94,100,5.01,overcast clouds
189,Kalmunai,LK,7.4167,81.8167,78.42,85,80,7.78,broken clouds
190,Loreto,MX,22.2667,-101.9667,78.46,33,100,4.16,overcast clouds
191,Craigieburn,AU,-37.6,144.95,49.78,81,100,11.5,overcast clouds
192,Fortuna,US,40.5982,-124.1573,78.93,72,20,13.8,few clouds
193,Weligama,LK,5.9667,80.4167,78.51,87,39,10.89,scattered clouds
194,Rabo De Peixe,PT,37.8,-25.5833,67.51,88,40,8.05,scattered clouds
195,Namibe,AO,-15.1961,12.1522,71.35,70,0,1.92,clear sky
196,Vestmannaeyjar,IS,63.4427,-20.2734,51.76,83,98,5.32,overcast clouds
197,Yellowknife,CA,62.456,-114.3525,71.37,40,51,16.98,broken clouds
198,Souillac,MU,-20.5167,57.5167,70.77,83,36,12.24,light rain
199,Asau,RO,46.4333,26.4,61.72,86,61,5.19,broken clouds
200,Sitka,US,57.0531,-135.33,51.69,82,100,9.22,light rain
201,Zhaotong,CN,27.3167,103.7167,55.36,97,100,4.0,light rain
202,Kikwit,CD,-5.041,18.8162,71.98,42,31,2.84,scattered clouds
203,Nishihara,JP,26.1842,127.7558,79.88,94,75,19.57,moderate rain
204,Valparaiso,CL,-33.0393,-71.6273,60.44,72,3,6.91,clear sky
205,Portland,US,45.5234,-122.6762,68.05,86,100,3.44,light rain
206,Xining,CN,36.6167,101.7667,53.31,62,64,2.73,broken clouds
207,Olafsvik,IS,64.8945,-23.7142,45.7,83,100,22.06,overcast clouds
208,Puerto Ayora,EC,-0.7393,-90.3518,80.56,70,0,11.61,clear sky
209,Taywarah,AF,33.35,64.4167,56.82,21,0,5.53,clear sky
210,Cabedelo,BR,-6.9811,-34.8339,79.47,80,10,7.47,clear sky
211,Boca De Parita,PA,8.0167,-80.45,83.34,73,100,2.77,overcast clouds
212,Mingaora,PK,34.7758,72.3625,74.01,34,18,8.72,few clouds
213,Muskogee,US,35.5834,-95.3336,87.15,67,0,4.61,clear sky
214,Chapais,CA,49.7834,-74.8492,68.79,40,100,12.21,overcast clouds
215,Makat,KZ,47.6469,53.3463,71.98,38,4,5.37,clear sky
216,Villacidro,IT,39.4578,8.7406,71.47,67,0,4.29,clear sky
217,Chingola,ZM,-12.529,27.8838,53.1,68,0,5.46,clear sky
218,Pilar,BR,-9.5972,-35.9567,76.93,92,15,4.45,few clouds
219,Kyra,RU,49.5776,111.9753,51.3,84,100,6.58,light rain
220,Mount Gambier,AU,-37.8333,140.7667,50.77,66,100,9.04,overcast clouds
221,Gualdo Tadino,IT,43.2317,12.781,64.74,58,6,28.99,clear sky
222,Batemans Bay,AU,-35.7167,150.1833,48.09,87,3,4.29,clear sky
223,Anadyr,RU,64.75,177.4833,50.49,37,0,4.14,clear sky
224,Banjar,ID,-8.19,114.9675,76.64,89,71,3.15,broken clouds
225,Grand Baie,MU,-20.0182,57.5802,69.46,88,11,5.01,moderate rain
226,Keetmanshoop,NA,-26.5833,18.1333,60.62,23,5,12.37,clear sky
227,Neepawa,CA,50.2289,-99.4664,66.13,59,100,9.57,overcast clouds
228,Tarakan,ID,3.3,117.6333,78.37,83,100,6.42,overcast clouds
229,Porosozero,RU,62.7191,32.727,54.36,85,97,4.65,overcast clouds
230,Padang,ID,-0.9492,100.3543,75.87,90,92,1.99,overcast clouds
231,Kommunar,RU,59.6206,30.39,60.33,82,100,2.91,overcast clouds
232,Chuy,UY,-33.6971,-53.4616,48.6,56,35,14.45,scattered clouds
233,Slave Lake,CA,55.2834,-114.769,60.46,63,100,10.69,overcast clouds
234,Salalah,OM,17.0151,54.0924,86.09,79,75,8.05,broken clouds
235,Waspan,NI,14.7419,-83.9717,83.86,68,100,6.62,overcast clouds
236,Pogranichnyy,RU,44.4064,131.3769,52.09,97,20,1.63,few clouds
237,San Luis,AR,-33.295,-66.3356,58.39,34,93,8.48,overcast clouds
238,Sao Filipe,CV,14.8961,-24.4956,74.57,83,1,10.33,clear sky
239,Nelson Bay,AU,-32.7167,152.15,48.09,79,1,15.05,clear sky
240,Muros,ES,42.7762,-9.0603,68.16,73,3,13.06,clear sky
241,Tabou,CI,4.423,-7.3528,76.91,88,99,8.61,light rain
242,Santa Rosa,PH,14.3122,121.1114,84.18,75,96,3.65,overcast clouds
243,Doba,TD,8.65,16.85,78.84,63,36,3.53,scattered clouds
244,Brae,GB,60.3964,-1.353,54.57,84,100,10.76,overcast clouds
245,Hovd,MN,48.0056,91.6419,53.31,27,0,1.92,clear sky
246,Ilhabela,BR,-23.7781,-45.3581,68.56,90,88,10.85,overcast clouds
247,Canto Do Buriti,BR,-8.11,-42.9444,90.77,31,91,6.08,overcast clouds
248,Gizo,SB,-8.103,156.8419,81.3,76,10,6.96,clear sky
249,Nakhon Si Thammarat,TH,8.25,100.0,75.63,88,97,3.87,overcast clouds
250,Paracatu,BR,-17.2222,-46.8747,80.85,29,100,4.41,overcast clouds
251,Dingle,PH,10.9995,122.6711,76.23,89,100,2.95,overcast clouds
252,Saint-Joseph,RE,-21.3667,55.6167,64.78,78,50,10.94,scattered clouds
253,Shenjiamen,CN,29.9576,122.298,69.35,87,100,13.6,overcast clouds
254,Manavalakurichi,IN,8.1333,77.3,79.2,85,58,12.66,broken clouds
255,Junin,AR,-34.5838,-60.9433,51.87,21,0,9.95,clear sky
256,Atar,MR,20.5169,-13.0499,99.81,12,5,14.16,clear sky
257,Ketchikan,US,55.3422,-131.6461,52.27,87,100,14.97,overcast clouds
258,Ahipara,NZ,-35.1667,173.1667,59.65,89,13,16.98,few clouds
259,Saint-Francois,FR,46.4154,3.9054,69.24,64,0,3.44,clear sky
260,Constitucion,CL,-35.3333,-72.4167,59.29,50,0,7.02,clear sky
261,Pong,TH,19.1493,100.2752,73.27,98,100,2.66,light rain
262,Rockport,US,28.0206,-97.0544,93.25,72,0,16.11,clear sky
263,Aranos,NA,-24.1333,19.1167,55.89,26,0,12.57,clear sky
264,Tuatapere,NZ,-46.1333,167.6833,37.92,94,100,3.04,overcast clouds
265,Puerto Quijarro,BO,-17.7833,-57.7667,71.2,68,100,6.42,overcast clouds
266,Acapulco,MX,16.8634,-99.8901,87.62,66,75,13.8,broken clouds
267,Watertown,US,42.3709,-71.1828,80.19,42,75,14.97,broken clouds
268,Chifeng,CN,42.2683,118.9636,60.73,91,100,5.61,overcast clouds
269,Aykhal,RU,66.0,111.5,42.28,82,91,10.02,overcast clouds
270,Tezu,IN,27.9167,96.1667,73.29,99,100,3.02,overcast clouds
271,Sao Sebastiao,BR,-23.76,-45.4097,68.18,93,93,9.51,overcast clouds
272,Aksu,CN,41.1231,80.2644,77.85,25,43,4.61,scattered clouds
273,Lota,CL,-37.0833,-73.1667,58.46,52,5,1.88,clear sky
274,Port Macquarie,AU,-31.4333,152.9167,45.27,77,0,7.29,clear sky
275,Bowen,AU,-20.0167,148.2333,53.58,64,0,8.75,clear sky
276,Keuruu,FI,62.2667,24.7,60.8,74,76,2.77,broken clouds
277,Kamenka,RU,51.3223,42.7678,63.59,75,23,4.59,few clouds
278,Sao Miguel Do Araguaia,BR,-13.275,-50.1628,90.01,25,34,3.98,scattered clouds
279,Klaksvik,FO,62.2266,-6.589,52.72,96,100,27.47,light rain
280,Caucaia,BR,-3.7361,-38.6531,82.35,71,20,13.8,few clouds
281,Umm Lajj,SA,25.0213,37.2685,89.62,36,0,7.67,clear sky
282,Nome,US,64.5011,-165.4064,57.27,31,0,12.66,clear sky
283,Badia Polesine,IT,45.0972,11.4916,76.01,58,6,2.95,clear sky
284,Calvinia,ZA,-31.4707,19.776,56.88,27,0,9.57,clear sky
285,Muskego,US,42.9058,-88.139,75.0,61,40,13.8,scattered clouds
286,Yelizovo,RU,53.1873,158.3805,44.74,100,75,2.24,broken clouds
287,Hambantota,LK,6.1241,81.1185,79.32,84,88,16.98,overcast clouds
288,Mirnyy,RU,62.5353,113.9611,48.24,93,80,7.0,broken clouds
289,Fort Nelson,CA,58.8053,-122.7002,59.49,73,100,2.95,light rain
290,Port Blair,IN,11.6667,92.75,81.99,81,100,16.64,overcast clouds
291,Porto Novo,BJ,6.4965,2.6036,80.42,82,100,7.07,overcast clouds
292,Kodiak,US,57.79,-152.4072,60.31,59,40,8.05,scattered clouds
293,Warrington,GB,53.3925,-2.5802,62.46,64,20,24.16,few clouds
294,Misratah,LY,32.3754,15.0925,73.13,67,0,21.21,clear sky
295,Thinadhoo,MV,0.5333,72.9333,83.61,71,100,9.93,light rain
296,Harrison,US,30.4091,-89.0436,86.02,72,0,6.91,clear sky
297,Geraldton,AU,-28.7667,114.6,63.01,94,75,10.36,broken clouds
298,Camacha,PT,33.0833,-16.3333,63.82,82,75,13.8,broken clouds
299,Morgan City,US,29.6994,-91.2068,88.0,79,20,13.8,few clouds
300,San Patricio,US,28.017,-97.5169,97.52,43,5,19.28,clear sky
301,Torbay,CA,47.6666,-52.7314,61.29,96,100,12.66,light rain
302,Huarmey,PE,-10.0681,-78.1522,69.6,73,61,11.12,broken clouds
303,Pangoa,PE,-12.1167,-73.0,75.7,77,75,4.7,broken clouds
304,Kavieng,PG,-2.5744,150.7967,81.01,74,13,12.62,few clouds
305,Kurumkan,RU,54.3,110.3,53.92,92,89,1.81,overcast clouds
306,Trinidad,BO,-14.8333,-64.9,71.58,68,100,18.41,heavy intensity rain
307,Dowa,MW,-13.654,33.9375,52.68,92,6,2.33,clear sky
308,Guerrero Negro,MX,27.9769,-114.0611,79.11,52,14,10.25,few clouds
309,Ancud,CL,-41.8697,-73.8203,46.96,67,84,6.29,broken clouds
310,Lagoa,PT,39.05,-27.9833,60.6,91,100,13.27,overcast clouds
311,Igrim,RU,63.1906,64.4162,54.75,88,79,3.33,broken clouds
312,Buala,SB,-8.145,159.5921,79.29,78,15,4.25,few clouds
313,Belaya Gora,RU,68.5333,146.4167,50.5,72,97,2.39,overcast clouds
314,Hearst,CA,49.6835,-83.6665,59.25,43,94,5.21,overcast clouds
315,Cedar City,US,37.6775,-113.0619,89.4,14,0,8.05,clear sky
316,Goulburn,AU,-34.75,149.7167,41.2,77,100,13.13,overcast clouds
317,Doha,QA,25.2867,51.5333,100.38,20,0,14.97,clear sky
318,Luanda,AO,-8.8368,13.2343,75.2,88,0,6.91,clear sky
319,Sharan,RU,54.8167,54.0,56.21,97,89,7.38,overcast clouds
320,Kindu,CD,-2.95,25.95,72.37,68,50,1.14,scattered clouds
321,Laguna,US,38.421,-121.4238,101.08,25,0,9.22,clear sky
322,Port Lincoln,AU,-34.7333,135.8667,56.03,76,100,8.95,overcast clouds
323,Tucuman,AR,-26.8241,-65.2226,57.2,62,100,0.0,overcast clouds
324,Leningradskiy,RU,69.3833,178.4167,39.78,55,97,9.17,overcast clouds
325,Helong,CN,42.5397,128.9972,50.79,95,94,1.92,overcast clouds
326,Bhadrachalam,IN,17.6667,80.8833,80.76,77,95,2.62,light rain
327,Swan Hill,AU,-35.3378,143.5544,42.66,92,5,7.0,clear sky
328,Suphan Buri,TH,14.4742,100.1222,80.58,69,100,7.2,overcast clouds
329,Takoradi,GH,4.8845,-1.7554,77.49,87,95,8.79,overcast clouds
330,Tahta,EG,26.7693,31.5021,95.81,13,0,6.17,clear sky
331,Bardiyah,LY,31.7561,25.0865,87.53,37,22,15.37,few clouds
332,Paita,PE,-5.0892,-81.1144,70.47,72,18,15.66,few clouds
333,Catamarca,AR,-28.4696,-65.7852,64.58,57,21,10.8,few clouds
334,Comodoro Rivadavia,AR,-45.8667,-67.5,48.06,25,0,6.91,clear sky
335,Reconquista,AR,-29.15,-59.65,56.3,36,0,8.34,clear sky
336,Kouroussa,GN,10.65,-9.8833,79.41,64,99,4.56,light rain
337,Saint-Augustin,CA,51.226,-58.6502,51.64,98,100,14.54,overcast clouds
338,Lianzhou,CN,24.7811,112.3825,75.6,99,100,1.5,moderate rain
339,Broken Hill,AU,-31.95,141.4333,46.9,92,18,10.09,few clouds
340,Atasu,KZ,48.6814,71.6433,65.91,36,73,8.99,broken clouds
341,Vanavara,RU,60.34,102.2797,52.07,69,62,0.76,broken clouds
342,Baykit,RU,61.67,96.37,55.44,64,87,3.33,overcast clouds
343,Mecca,SA,21.4267,39.8261,93.72,31,0,3.91,clear sky
344,Longyearbyen,SJ,78.2186,15.6401,37.24,81,100,6.91,overcast clouds
345,Seoul,KR,37.5683,126.9778,63.84,67,100,3.09,overcast clouds
346,Inhambane,MZ,-23.865,35.3833,69.28,72,95,9.51,overcast clouds
347,Dmitriyevka,RU,54.75,55.3333,58.55,94,88,7.52,overcast clouds
348,Mandalgovi,MN,45.7625,106.2708,42.4,86,100,33.51,overcast clouds
349,Poum,NC,-20.2333,164.0167,75.42,82,98,18.45,overcast clouds
350,Robertsport,LR,6.7533,-11.3686,79.84,81,100,11.59,overcast clouds
351,Key Largo,US,25.0865,-80.4473,83.98,49,14,8.5,few clouds
352,Boende,CD,-0.2167,20.8667,74.59,70,5,1.1,clear sky
353,Alta Floresta,BR,-9.8756,-56.0861,76.82,73,40,5.75,scattered clouds
354,Sarkand,KZ,45.41,79.9186,70.61,38,98,8.59,overcast clouds
355,Agen,FR,44.2,0.6333,72.72,60,99,3.44,haze
356,Pangai,TO,-19.8,-174.35,80.71,69,75,12.66,broken clouds
357,Kahramanmaras,TR,38.0,37.0,65.44,69,0,1.88,clear sky
358,Parkersburg,US,39.2667,-81.5615,75.52,48,20,3.44,few clouds
359,Dasoguz,TM,41.8363,59.9666,73.35,56,100,4.61,overcast clouds
360,Merauke,ID,-8.4667,140.3333,75.94,92,49,10.85,scattered clouds
361,Vikesa,NO,58.6376,6.0913,56.88,94,80,5.01,broken clouds
362,Tulun,RU,54.5611,100.5792,49.08,66,33,2.39,scattered clouds
363,Mankachar,IN,25.5333,89.8667,76.33,93,100,11.88,overcast clouds
364,Betare Oya,CM,5.6,14.0833,69.06,87,3,3.65,clear sky
365,Karratha,AU,-20.7377,116.8463,72.12,85,0,7.7,clear sky
366,Kano,NG,12.0001,8.5167,78.69,65,20,5.75,thunderstorm
367,Peniche,PT,39.3558,-9.3811,71.29,87,0,22.66,clear sky
368,Ahuimanu,US,21.4447,-157.8378,83.91,62,75,12.66,broken clouds
369,Sijunjung,ID,-0.6876,100.9537,70.27,99,97,1.52,overcast clouds
370,Port Augusta,AU,-32.5,137.7667,50.07,92,56,5.59,broken clouds
371,Lensk,RU,60.7253,114.9278,49.82,84,8,4.0,clear sky
372,Saint-Leu,RE,-21.15,55.2833,68.83,73,27,4.79,scattered clouds
373,Asyut,EG,27.181,31.1837,94.32,14,0,6.6,clear sky
374,Kuryk,KZ,43.2,51.65,72.91,41,5,9.44,clear sky
375,Freeport,US,40.6576,-73.5832,82.58,43,40,13.8,scattered clouds
376,Auki,SB,-8.7676,160.7034,76.23,86,17,3.6,few clouds
377,Rovaniemi,FI,66.5,25.7167,60.21,38,0,3.44,clear sky
378,Bayji,IQ,34.9311,43.487,85.75,14,0,7.58,clear sky
379,Timmins,CA,48.4669,-81.3331,66.02,37,75,8.05,broken clouds
380,Coihaique,CL,-45.5752,-72.0662,45.21,60,75,4.61,broken clouds
381,Bagar,IN,28.1874,75.5005,90.9,17,0,12.82,clear sky
382,Vilyuysk,RU,63.7553,121.6247,54.91,61,98,5.32,overcast clouds
383,Najran,SA,17.4924,44.1277,83.05,15,9,2.84,clear sky
384,Kingaroy,AU,-26.5333,151.8333,39.76,86,2,5.95,clear sky
385,Jalu,LY,29.0331,21.5482,84.15,38,7,17.85,clear sky
386,Boddam,GB,57.4667,-1.7833,56.43,84,99,20.54,moderate rain
387,Sazava,CZ,49.8716,14.8967,62.46,81,0,2.93,clear sky
388,Narasannapeta,IN,18.4167,84.05,85.71,62,100,4.18,overcast clouds
389,Krasnoselkup,RU,65.7,82.4667,61.27,50,67,16.13,broken clouds
390,Kurkino,RU,53.4257,38.6582,63.1,90,72,5.53,broken clouds
391,Albanel,CA,48.8832,-72.4487,67.98,60,100,16.11,overcast clouds
392,Tecoanapa,MX,16.5167,-98.75,86.43,66,61,13.78,broken clouds
393,Vydrino,RU,51.485,104.8461,47.7,91,100,5.68,overcast clouds
394,Kochevo,RU,59.5994,54.3125,54.95,92,100,6.85,light rain
395,Ambad,IN,19.6167,75.8,80.19,69,100,15.86,overcast clouds
396,Saint-Pierre,RE,-21.3393,55.4781,67.91,77,0,5.75,clear sky
397,Lynchburg,US,37.4138,-79.1423,81.21,42,20,3.44,few clouds
398,Del Rio,US,29.3627,-100.8968,98.71,30,0,14.97,clear sky
399,Pangnirtung,CA,66.1451,-65.7125,39.2,81,75,14.97,broken clouds
400,Porto Walter,BR,-8.2686,-72.7439,78.46,95,98,2.82,moderate rain
401,Aswan,EG,24.0934,32.907,97.03,11,0,9.95,clear sky
402,Los Llanos De Aridane,ES,28.6585,-17.9182,69.12,87,0,16.11,clear sky
403,Ghanzi,BW,-21.5667,21.7833,54.0,33,0,8.93,clear sky
404,Taoudenni,ML,22.6783,-3.9836,103.24,8,2,1.59,clear sky
405,Primorsko-Akhtarsk,RU,46.0497,38.1747,68.2,77,92,1.28,overcast clouds
406,Ginda,IN,30.6945,78.4932,65.91,36,2,6.98,clear sky
407,Penapolis,BR,-21.4197,-50.0775,69.75,84,91,10.07,overcast clouds
408,Husavik,IS,66.0449,-17.3389,42.57,95,100,8.79,overcast clouds
409,Tadine,NC,-21.55,167.8833,70.61,95,100,1.45,overcast clouds
410,Salinas,US,36.6777,-121.6555,102.0,40,0,12.66,clear sky
411,Vernon,CA,50.2581,-119.2691,77.76,43,14,2.3,few clouds
412,Tokur,RU,53.1333,132.9,49.8,71,100,2.42,overcast clouds
413,San Angelo,US,31.4638,-100.437,100.94,27,0,6.91,clear sky
414,Saint George,US,37.1041,-113.5841,105.8,12,0,14.97,clear sky
415,Joigny,FR,47.9829,3.401,64.81,83,0,4.29,clear sky
416,Buin,CL,-33.7333,-70.75,77.32,31,100,1.43,overcast clouds
417,Vanimo,PG,-2.6741,141.3028,76.06,90,28,4.5,scattered clouds
418,Moba,CN,33.2288,105.0179,53.26,93,95,2.77,overcast clouds
419,Necochea,AR,-38.5473,-58.7368,47.68,67,100,24.63,overcast clouds
420,Tahoua,NE,14.8888,5.2692,91.85,26,100,8.5,overcast clouds
421,Kralendijk,BQ,12.15,-68.2667,85.98,70,75,18.41,broken clouds
422,Udachnyy,RU,66.4167,112.4,41.45,75,61,13.94,broken clouds
423,Aljezur,PT,37.3191,-8.8033,68.2,80,4,6.67,clear sky
424,Sioux Lookout,CA,50.1001,-91.917,69.87,37,20,12.66,few clouds
425,North Bend,US,43.4065,-124.2243,64.31,94,100,8.05,overcast clouds
426,Tobane,BW,-21.95,27.9,51.04,55,0,5.93,clear sky
427,Nalut,LY,30.3333,10.85,80.31,30,0,20.27,clear sky
428,Alihe,CN,50.5667,123.7167,53.08,94,10,0.51,clear sky
429,Riohacha,CO,11.5444,-72.9072,89.91,51,94,18.75,overcast clouds
430,Fresno,US,36.6666,-119.8343,99.41,30,0,5.75,clear sky
431,Khash,IR,28.2211,61.2158,83.79,17,21,4.29,few clouds
432,Soavinandriana,MG,-19.1667,46.7333,53.58,88,91,4.43,overcast clouds
433,Kovdor,RU,67.5662,30.4758,46.72,67,27,4.74,scattered clouds
434,Iralaya,HN,15.0,-83.2333,83.89,69,100,12.3,overcast clouds
435,Luau,AO,-10.7073,22.2247,59.2,52,14,2.24,few clouds
436,Coquimbo,CL,-29.9533,-71.3436,55.13,87,75,9.22,broken clouds
437,Atikokan,CA,48.7555,-91.6216,74.46,21,11,7.58,few clouds
438,Dubovskoye,RU,47.4092,42.7575,67.6,41,0,8.25,clear sky
439,Bunia,CD,1.5667,30.25,64.36,78,86,4.52,overcast clouds
440,Leo,BF,11.1,-2.1,87.85,35,41,3.06,scattered clouds
441,Maceio,BR,-9.6658,-35.7353,78.24,88,75,5.75,broken clouds
442,Rio Gallegos,AR,-51.6226,-69.2181,42.85,52,75,14.97,broken clouds
443,Wilmington,US,34.2257,-77.9447,84.94,66,20,10.36,few clouds
444,Japura,ID,-0.3167,102.35,73.8,98,87,1.66,light rain
445,Ust-Tsilma,RU,65.441,52.1498,52.97,90,100,11.07,light rain
446,Tiksi,RU,71.6872,128.8694,39.38,77,4,5.1,clear sky
447,Oriximina,BR,-1.7656,-55.8661,84.0,70,64,5.46,broken clouds
448,Corinto,GR,37.9407,22.9573,74.41,72,0,8.08,clear sky
449,Moussoro,TD,13.6408,16.4901,89.01,38,83,6.2,light rain
450,Hofn,IS,64.2539,-15.2082,51.82,76,100,14.97,overcast clouds
451,Kuytun,RU,54.3419,101.5036,49.78,56,14,1.72,few clouds
452,Hastings,GB,50.8552,0.5729,60.8,80,19,13.87,few clouds
453,Bhuj,IN,23.2667,69.6667,81.32,80,0,16.89,clear sky
454,Gazanjyk,TM,39.2446,55.5154,74.35,53,0,15.64,clear sky
455,Conde,BR,-7.2597,-34.9075,78.26,83,20,9.22,few clouds
456,Galesong,ID,-5.3166,119.3661,73.42,83,50,4.79,scattered clouds
457,Juneau,US,58.3019,-134.4197,60.8,100,75,17.27,broken clouds
458,Luba,GQ,3.4568,8.5547,79.07,86,28,9.06,light rain
459,Tinaquillo,VE,9.9186,-68.3047,86.07,55,97,1.28,overcast clouds
460,Rudnogorsk,RU,57.2639,103.7519,48.78,63,12,1.95,few clouds
461,Billings,US,45.7833,-108.5007,83.28,40,75,8.05,broken clouds
462,Salym,RU,60.0625,71.4789,53.49,98,100,3.58,overcast clouds
463,Fort Saint James,CA,54.4333,-124.25,66.72,29,48,9.64,scattered clouds
464,Marshall,US,34.3834,-86.3333,81.07,44,0,3.44,clear sky
465,Banfora,BF,10.6333,-4.7667,85.23,44,57,8.97,broken clouds
466,Suifenhe,CN,44.4,131.1667,48.43,97,24,0.6,few clouds
467,Haines Junction,CA,60.7522,-137.5108,56.32,60,100,7.31,overcast clouds
468,Inongo,CD,-1.95,18.2667,72.88,58,66,1.9,broken clouds
469,Sergeyevka,KZ,53.88,67.4158,54.99,79,28,7.65,scattered clouds
470,Mao,ES,39.8885,4.2658,72.16,64,0,3.44,clear sky
471,Kysyl-Syr,RU,63.8986,122.7617,52.5,64,82,5.1,broken clouds
472,Svinita,RO,44.4997,22.1061,60.91,93,53,2.95,broken clouds
473,Noshiro,JP,40.2039,140.0242,55.98,90,92,3.98,overcast clouds
474,Broome,US,42.2506,-75.833,75.02,47,40,8.05,scattered clouds
475,San Cristobal,VE,7.7669,-72.225,78.98,43,16,8.93,few clouds
476,Oloron-Sainte-Marie,FR,43.1944,-0.6107,75.13,71,100,1.97,overcast clouds
477,Pisco,PE,-13.7,-76.2167,66.25,77,2,6.91,haze
478,Saldanha,ZA,-33.0117,17.9442,64.87,42,29,9.69,scattered clouds
479,Setermoen,NO,68.861,18.3486,55.44,61,1,5.01,clear sky
480,Alofi,NU,-19.0595,-169.9187,76.89,78,75,8.05,broken clouds
481,Hailun,CN,47.45,126.9333,55.47,77,98,4.52,overcast clouds
482,Chhatak,BD,25.0333,91.6667,75.18,93,72,5.66,broken clouds
483,Ubinskoye,RU,55.3068,79.6802,61.81,88,100,6.2,light rain
484,Nikita,UA,44.5333,34.2333,58.32,82,72,3.44,broken clouds
485,Eureka,US,40.8021,-124.1637,79.2,71,100,5.99,overcast clouds
486,Trowbridge,GB,51.3189,-2.2086,62.19,84,67,7.99,broken clouds
487,Evensk,RU,61.95,159.2333,42.73,94,100,12.55,overcast clouds
488,Santiago Del Estero,AR,-27.7951,-64.2615,62.04,25,62,2.21,broken clouds
489,Vila Franca Do Campo,PT,37.7167,-25.4333,68.41,86,82,5.03,broken clouds
490,Looc,PH,12.2605,121.9926,80.58,78,39,4.65,scattered clouds
491,Houma,US,29.5958,-90.7195,88.0,70,75,9.22,broken clouds
492,Gandu,BR,-13.7439,-39.4867,72.46,91,99,2.73,overcast clouds
493,Waipawa,NZ,-41.4122,175.5153,51.96,84,61,23.15,light rain
494,Sambava,MG,-14.2667,50.1667,72.64,79,96,10.18,light rain
495,Talnakh,RU,69.4865,88.3972,49.21,55,11,7.45,few clouds
496,Shubarkuduk,KZ,49.1447,56.4872,58.55,65,3,3.71,clear sky
497,Puerto Colombia,CO,10.9878,-74.9547,80.69,71,100,12.03,overcast clouds
498,Bridgetown,BB,13.1,-59.6167,81.09,89,75,23.02,broken clouds
499,Bathsheba,BB,13.2167,-59.5167,81.21,89,75,23.02,broken clouds
500,Edd,ER,13.9297,41.6925,88.2,67,100,7.94,overcast clouds
501,Pancas,BR,-19.225,-40.8514,76.8,53,10,3.31,clear sky
502,Solnechnyy,RU,50.7214,136.6319,43.21,84,6,3.11,clear sky
503,Prince Rupert,CA,54.3161,-130.3201,51.89,86,100,25.32,overcast clouds
504,Juigalpa,NI,12.1063,-85.3645,85.91,66,40,6.91,scattered clouds
505,Inyonga,TZ,-6.7167,32.0667,69.21,51,99,6.58,overcast clouds
506,Poya,NC,-21.35,165.15,71.1,91,100,2.19,overcast clouds
507,Svetlogorsk,BY,52.6333,29.7333,65.97,81,0,6.11,clear sky
508,Marawi,PH,7.9986,124.2928,67.71,94,20,2.8,few clouds
509,Uruzgan,AF,32.8333,66.0,72.48,11,0,7.52,clear sky
510,Kokkola,FI,63.8385,23.1307,56.03,77,0,3.44,clear sky
511,Henties Bay,NA,-22.116,14.2845,71.67,30,0,7.96,clear sky
512,Gat,IL,31.61,34.7642,81.39,44,0,7.56,clear sky
513,Kargil,IN,34.5667,76.1,50.67,42,14,5.23,few clouds
514,Nador,MA,35.174,-2.9287,73.65,73,0,5.75,clear sky
515,Banda Aceh,ID,5.5577,95.3222,78.84,80,98,8.3,overcast clouds
516,Carauari,BR,-4.8828,-66.8958,81.99,83,100,1.95,overcast clouds
517,San Vicente,AR,-26.6167,-54.1333,56.57,72,100,5.53,overcast clouds
518,Balikpapan,ID,-1.2675,116.8289,75.09,90,99,2.93,overcast clouds
519,Mehamn,NO,71.0357,27.8492,44.51,81,59,19.01,broken clouds
520,Bubaque,GW,11.2833,-15.8333,81.1,80,37,19.46,scattered clouds
521,Rajanpur,PK,29.1035,70.325,95.31,34,0,19.06,clear sky
522,Severo-Kurilsk,RU,50.6789,156.125,43.41,93,100,9.69,overcast clouds
523,Luancheng,CN,37.8792,114.6517,71.76,60,1,4.32,clear sky
524,Neryungri,RU,56.6709,124.6491,53.4,92,95,1.52,overcast clouds
525,Mikhaylovka,RU,50.06,43.2379,65.34,60,3,2.48,clear sky
526,Ouadda,CF,8.0777,22.4007,72.84,74,78,0.89,broken clouds
527,Iracoubo,GF,5.4802,-53.2011,81.61,77,99,8.63,overcast clouds
528,Cotonou,BJ,6.3654,2.4183,80.58,83,40,9.22,scattered clouds
529,Polonnaruwa,LK,7.9333,81.0,79.66,67,96,10.89,overcast clouds
530,Marzuq,YE,14.4,46.4667,82.2,42,52,5.46,broken clouds
531,Hualmay,PE,-11.0964,-77.6139,68.09,72,35,9.73,scattered clouds
532,Montmagny,FR,48.9734,2.3469,70.02,65,0,2.3,clear sky
533,Kawalu,ID,-7.3817,108.2082,72.27,97,98,1.19,overcast clouds
534,Bentong,MY,3.5181,101.9079,73.51,97,100,1.41,overcast clouds
535,Tilichiki,RU,60.4667,166.1,51.62,62,96,5.01,overcast clouds
536,Liverpool,GB,53.4106,-2.9779,62.29,66,20,24.16,few clouds
537,Maiduguri,NG,11.8464,13.1603,91.71,35,85,10.69,overcast clouds
538,Tayturka,RU,52.8692,103.4608,51.57,71,81,4.92,broken clouds
539,Nicoya,CR,10.1483,-85.452,83.8,73,78,2.3,broken clouds
540,Clejani,RO,44.3197,25.6994,69.89,73,26,10.02,scattered clouds
541,Oranjemund,NA,-28.55,16.4333,65.98,32,47,4.61,scattered clouds
542,Wum,CM,6.3833,10.0667,64.47,94,54,3.31,light rain
543,Yadgir,IN,16.7667,77.1333,82.8,63,100,13.35,overcast clouds
544,Torrelavega,ES,43.3494,-4.0479,66.79,86,90,3.0,overcast clouds
545,Severo-Yeniseyskiy,RU,60.3725,93.0408,50.99,64,89,3.0,overcast clouds
546,Kohlu,PK,29.8962,69.252,80.4,39,0,4.56,clear sky
547,Rio Branco,BR,-9.9747,-67.81,68.61,100,100,8.05,mist
548,Cockburn Town,TC,21.4612,-71.1419,84.16,65,40,13.8,scattered clouds
549,Tres Arroyos,AR,-38.3739,-60.2798,45.1,44,1,14.61,clear sky
550,Guider,CM,9.9342,13.9486,85.3,46,31,1.83,scattered clouds
551,Iquique,CL,-20.2208,-70.1431,62.64,72,11,7.85,few clouds
552,Mabaruma,GY,8.2,-59.7833,82.17,75,100,5.97,overcast clouds
553,Kodinsk,RU,58.6881,99.1844,52.52,64,6,1.16,clear sky
554,Krasnokholmskiy,RU,55.9873,55.0466,57.74,95,100,5.08,overcast clouds
555,Yuzhou,CN,34.1628,113.4639,70.56,77,23,4.56,few clouds
556,Campbell River,CA,50.0163,-125.2446,65.59,78,94,7.99,light rain
557,Mitu,CO,1.1983,-70.1733,79.34,94,100,1.54,light rain
558,Nemuro,JP,43.3236,145.575,48.22,91,66,9.51,broken clouds
559,Ayan,RU,56.45,138.1667,42.8,92,99,1.52,overcast clouds
560,Yerbogachen,RU,61.2767,108.0108,48.02,94,21,4.7,light rain
561,Inverness,GB,57.4791,-4.224,60.71,76,20,13.8,light rain
562,Linhares,BR,-19.3911,-40.0722,75.78,64,9,6.93,clear sky
563,Mayumba,GA,-3.432,10.6554,74.3,91,9,4.47,clear sky
564,Zarubino,RU,42.63,131.0922,52.66,98,45,9.46,scattered clouds
565,Rawson,AR,-43.3002,-65.1023,48.65,31,23,7.52,few clouds
566,Inirida,CO,3.8653,-67.9239,84.52,77,95,0.76,overcast clouds
567,Ambanja,MG,-13.6833,48.45,70.45,88,12,3.49,few clouds
568,Kirakira,SB,-10.4544,161.9205,79.93,83,28,5.26,scattered clouds
569,Deputatskiy,RU,69.3,139.9,48.58,63,26,2.24,scattered clouds
570,Garowe,SO,8.4054,48.4845,86.5,36,43,24.09,scattered clouds
571,Quatre Cocos,MU,-20.2078,57.7625,71.71,81,58,13.82,light rain
572,Ostrovnoy,RU,68.0531,39.5131,42.75,75,17,5.75,few clouds
573,Larap,PH,14.299,122.6504,77.67,89,68,3.85,broken clouds
574,Shimoda,JP,34.6667,138.95,64.11,87,100,2.68,overcast clouds
575,Gao,ML,16.6362,1.637,96.15,10,17,9.55,few clouds
576,Nieuw Nickerie,SR,5.95,-56.9833,80.69,83,100,9.78,overcast clouds
577,Zverinogolovskoye,RU,54.4586,64.8542,53.42,95,16,8.03,few clouds
578,Ixtapa,MX,20.7,-105.2,85.23,79,20,13.8,few clouds
579,Pizarro,CO,4.9533,-77.366,81.68,74,61,8.46,broken clouds
580,Saint-Georges,GD,12.0564,-61.7485,81.03,78,91,13.71,overcast clouds
581,Tazmalt,DZ,36.3868,4.3989,68.81,57,1,5.46,clear sky
582,Hami,CN,42.8,93.45,73.96,10,26,5.23,scattered clouds
583,Jiayuguan,CN,39.8167,98.3,61.77,17,100,5.1,overcast clouds
584,Tomatlan,MX,19.9333,-105.25,85.8,60,98,8.08,overcast clouds
585,Lukulu,ZM,-14.3707,23.242,59.41,54,28,5.86,scattered clouds
586,Jumla,NP,29.2747,82.1838,59.34,82,82,0.67,broken clouds
587,Lufkin,US,31.3382,-94.7291,96.84,49,0,6.91,clear sky
588,Lerwick,GB,60.1545,-1.1494,53.6,86,100,15.19,overcast clouds
589,Tsumeb,NA,-19.2333,17.7167,57.15,32,0,8.01,clear sky
590,Kilgore,US,32.3863,-94.8758,94.14,55,0,9.22,clear sky
591,Koumac,NC,-20.5667,164.2833,73.18,87,100,9.93,overcast clouds
592,Safford,US,32.834,-109.7076,105.12,13,0,6.91,clear sky
593,Sciacca,IT,37.5082,13.0881,70.0,77,0,11.7,clear sky
594,Aksarka,RU,66.5606,67.7975,56.93,94,98,11.56,light rain
595,Aasiaat,GL,68.7098,-52.8699,34.39,86,100,6.15,overcast clouds
596,Penzance,GB,50.1186,-5.5371,57.88,85,0,17.98,clear sky
597,Humaita,BR,-7.5061,-63.0208,83.8,75,99,0.69,moderate rain
598,Puerto Suarez,BO,-18.95,-57.8,71.96,73,75,14.97,broken clouds
599,Agadir,MA,30.4202,-9.5982,70.25,84,26,2.71,scattered clouds
600,Tigil,RU,57.8,158.6667,45.75,64,100,7.45,overcast clouds
601,Bhinga,IN,27.7167,81.9333,88.48,48,25,9.82,scattered clouds
602,Una,IN,20.8167,71.0333,83.91,78,96,9.93,overcast clouds
603,Aras,ES,42.5617,-2.356,77.41,28,0,4.61,clear sky
604,Presidencia Roque Saenz Pena,AR,-26.7852,-60.4388,61.16,36,0,8.05,clear sky
605,Uspenka,UA,48.3903,39.1619,65.46,59,0,2.46,clear sky
606,Vaitape,PF,-16.5167,-151.75,80.2,74,12,17.94,light rain
607,Moree,AU,-29.4667,149.85,46.56,64,58,10.6,broken clouds
608,Kununurra,AU,-15.7667,128.7333,62.58,36,18,6.91,few clouds
609,Cosala,MX,24.4125,-106.6908,96.98,33,61,5.99,broken clouds
610,Simi,SL,9.5667,-12.35,80.73,75,33,8.55,light rain
611,Havre,FR,49.5833,0.3333,68.2,88,75,11.5,broken clouds
612,Brownsville,US,25.9018,-97.4975,97.09,50,0,18.41,clear sky
613,Lago Da Pedra,BR,-4.3333,-45.1667,78.69,91,100,1.23,light rain
614,Road Town,VG,18.4167,-64.6167,86.04,66,40,11.5,scattered clouds
615,Zahesi,GE,41.8246,44.7536,62.31,86,100,3.83,overcast clouds
616,Shaki,AZ,41.0833,47.1667,68.56,57,97,10.11,overcast clouds
617,Sobolevo,RU,54.4299,31.8996,64.53,86,74,2.64,broken clouds
618,Kampot,KH,10.6167,104.1833,78.85,83,100,6.11,overcast clouds
619,Iquitos,PE,-3.7481,-73.2472,75.24,94,100,3.44,moderate rain
620,Ramonville-Saint-Agne,FR,43.5462,1.4749,76.82,44,0,6.91,clear sky
621,Letlhakane,BW,-21.4167,25.5833,55.2,38,0,15.35,clear sky
622,Monki,PL,53.405,22.7979,62.67,94,73,10.67,broken clouds
623,Naze,JP,28.3667,129.4833,74.32,91,100,21.68,heavy intensity rain
624,Port-Cartier,CA,50.0334,-66.8654,52.02,95,100,10.22,moderate rain
625,Yarada,IN,17.65,83.2667,82.72,94,75,2.3,mist
626,Alberton,CA,46.8168,-64.0654,64.69,68,76,14.52,broken clouds
627,Harper,LR,4.375,-7.7169,76.96,87,100,9.57,light rain
628,Bilma,NE,18.6853,12.9164,96.04,17,52,8.52,broken clouds
629,Urusha,RU,54.05,122.9,50.58,58,10,2.64,clear sky
630,Spasskoye,RU,44.6108,132.7969,51.48,95,1,1.61,clear sky
631,Nantucket,US,41.2835,-70.0995,75.31,78,0,18.41,clear sky
632,Tsabong,BW,-26.0217,22.401,59.7,29,2,8.43,clear sky
633,Vallenar,CL,-28.5708,-70.7581,77.94,20,3,5.37,clear sky
634,Smithers,CA,54.7804,-127.1743,61.12,44,75,9.22,broken clouds
635,Flinders,AU,-34.5833,150.8552,53.19,68,2,8.99,clear sky
636,Saint Simons,US,31.1352,-81.3901,89.65,51,40,11.5,scattered clouds
637,Marabba,SD,12.35,32.1833,89.65,42,75,12.68,broken clouds
638,Okhotsk,RU,59.3833,143.3,40.68,96,100,5.86,overcast clouds
639,Wawa,NG,9.9022,4.4192,83.97,59,15,6.31,light rain
640,Sistranda,NO,63.7256,8.834,51.76,84,100,6.4,overcast clouds
641,Pimentel,PE,-6.8367,-79.9342,70.09,64,0,19.57,clear sky
642,Coruripe,BR,-10.1256,-36.1756,75.96,88,15,9.37,few clouds
643,Nuuk,GL,64.1835,-51.7216,45.21,70,75,6.91,broken clouds
644,Ottumwa,US,41.02,-92.4113,73.94,73,100,5.75,overcast clouds
645,Hamilton,US,39.1834,-84.5333,75.06,74,100,6.91,overcast clouds
646,Bulgan,MN,48.8125,103.5347,41.04,91,100,6.53,overcast clouds
647,Praia Da Vitoria,PT,38.7333,-27.0667,65.75,94,75,4.38,light intensity drizzle
648,Soyo,AO,-6.1349,12.3689,74.44,89,8,7.14,clear sky
649,Kharabali,RU,47.4196,47.2568,72.7,37,1,8.59,clear sky
650,Otse,BW,-25.0167,25.7333,49.51,41,0,2.57,clear sky
651,Dharmabad,IN,18.9,77.85,80.8,67,100,9.64,overcast clouds
652,Tiarei,PF,-17.5333,-149.3333,82.42,75,18,11.39,light rain
653,Ilo,PE,-17.6394,-71.3375,65.26,77,0,8.05,clear sky
654,Kimbe,PG,-5.5502,150.1429,74.3,94,13,2.77,few clouds
655,Rexburg,US,43.826,-111.7897,83.71,31,0,11.5,clear sky
656,Palana,RU,59.1167,159.9667,40.32,75,99,19.71,light rain
657,Mansa,IN,29.9833,75.3833,95.47,15,0,7.63,clear sky
658,Luena,AO,-11.7833,19.9167,53.38,63,0,3.83,clear sky
659,Qaqortoq,GL,60.7167,-46.0333,46.02,64,100,5.88,overcast clouds
660,Olinda,BR,-8.0089,-34.8553,80.33,78,20,4.61,few clouds
661,Mopti,ML,14.6667,-4.0,101.28,8,0,8.32,clear sky
662,Kanniyakumari,IN,8.0833,77.5667,80.1,84,62,19.01,broken clouds
663,Nachingwea,TZ,-10.3833,38.7667,68.23,71,95,3.38,overcast clouds
664,Nichinan,JP,31.6,131.3667,65.91,95,100,13.44,moderate rain
665,Colatina,BR,-19.5394,-40.6306,77.07,54,7,1.72,clear sky
666,Angoche,MZ,-16.2325,39.9086,70.32,75,0,9.1,clear sky
667,Carballo,ES,43.213,-8.691,64.54,87,53,7.56,broken clouds
668,Bend,US,44.0582,-121.3153,71.46,60,75,13.8,broken clouds
669,Tabuk,PH,17.4189,121.4443,73.69,89,100,3.15,overcast clouds
670,Itigi,TZ,-5.7,34.4833,67.35,56,94,10.65,overcast clouds
671,Verkhnevilyuysk,RU,63.4453,120.3167,52.48,73,97,5.23,overcast clouds
672,Corner Brook,CA,48.9667,-57.9484,68.16,90,100,6.55,overcast clouds
673,Nioro,GM,13.35,-15.75,85.28,54,40,14.9,scattered clouds
674,Krasnyy Kut,RU,50.95,46.9667,66.2,67,7,8.34,clear sky
675,Tucuma,BR,-0.1833,-50.05,78.26,85,100,4.38,overcast clouds
676,Nadym,RU,65.5333,72.5167,56.01,79,99,9.82,overcast clouds
677,Nyuksenitsa,RU,60.4128,44.2397,54.05,92,16,7.65,few clouds
678,Fairbanks,US,64.8378,-147.7164,56.08,55,100,6.91,light rain
679,Yuzhno-Kurilsk,RU,44.0306,145.8556,46.33,92,58,8.61,broken clouds
680,Luderitz,NA,-26.6481,15.1594,66.9,31,95,2.8,overcast clouds
681,Campina Verde,BR,-19.5356,-49.4864,77.02,53,100,10.69,overcast clouds
682,New Richmond,US,45.123,-92.5366,80.28,22,100,4.61,overcast clouds
683,Barcelos,PT,41.5388,-8.6151,82.92,70,6,8.7,clear sky
684,Mayo,US,38.8876,-76.5119,82.51,54,75,6.91,broken clouds
685,Meulaboh,ID,4.1363,96.1285,74.75,91,51,6.58,broken clouds
686,San Carlos De Bariloche,AR,-41.1456,-71.3082,46.44,49,0,2.3,clear sky
687,Nouadhibou,MR,20.931,-17.0347,67.98,83,1,21.85,sand
688,Dongli,CN,23.5656,116.8194,76.98,100,75,0.0,broken clouds
